{"msg":"success","code":0,"data":[{"id":"50022941600000_20240725152259","headline":"城口县气象台发布森林草原火险橙色预警[Ⅱ级/严重]","effective":"2024/07/25 15:22","description":"城口县森林草原防灭火指挥部、城口县应急管理局、城口县林业局、城口县气象局2024年7月25日15时20分联合发布“森林草原火险橙色预警信号”，目前我县所有乡镇已连续多日出现高森林草原火险气象等级。预计7月25日到27日我县所有乡镇（街道）仍将持续高森林草原火险气象等级，发生森林草原火灾的风险高。","longitude":108.6649,"latitude":31.9463,"type":"p0000002","title":"重庆市城口县发布森林（草原）火险橙色预警"},{"id":"50023141600000_20240725143253","headline":"垫江县气象台发布大风蓝色预警[Ⅳ级/一般]","effective":"2024/07/25 14:32","description":"垫江县气象台2024年7月25日14时20分发布“大风蓝色预警信号”，我县长龙镇已出现8级阵性大风，预计25日14时至20时，鹤游镇、包家镇、砚台镇、澄溪镇、五洞镇、高峰镇可能受大风影响，阵风可达7级以上，提请注意防范。","longitude":107.3487,"latitude":30.33,"type":"p0007004","title":"重庆市垫江县发布大风蓝色预警"},{"id":"50022841600000_20240725132911","headline":"梁平区气象台发布高温橙色预警[Ⅱ级/严重]","effective":"2024/07/25 13:29","description":"梁平区气象台2024年7月25日13时20分发布“高温橙色预警信号”，预计25日14时至19时，曲水镇、安胜镇、星桥镇、合兴街道、文化镇、复平镇、大观镇、紫照镇、柏家镇、石安镇、金带街道、蟠龙镇、双桂街道、福禄镇、梁山街道、礼让镇、竹山镇、袁驿镇、龙胜乡、明达镇、龙门镇、碧山镇、虎城镇、新盛镇、荫平镇、铁门乡、屏锦镇、云龙镇、和林镇、回龙镇、聚奎镇、仁贤街道、七星镇日最高气温将升至37℃以上。","longitude":107.7958,"latitude":30.6751,"type":"p0003002","title":"重庆市梁平县发布高温橙色预警"},{"id":"50023641600000_20240725130836","headline":"奉节县气象台发布森林草原火险橙色预警[Ⅱ级/严重]","effective":"2024/07/25 13:08","description":"奉节县森林草原防灭火指挥部、奉节县应急管理局、奉节县林业局、奉节县气象局2024年7月25日13时00分联合继续发布“森林草原火险橙色预警信号”，我县草堂镇、白帝镇、康乐镇、汾河镇、长安乡、永乐镇、冯坪乡、鹤峰乡、康坪乡、大树镇、青莲镇、公平镇、朱衣镇、红土乡、石岗乡、竹园镇、青龙镇、羊市镇、五马镇、安坪镇、甲高镇、夔州街道、永安街道、夔门街道、鱼复街道等地已连续多日出现高森林草原火险气象等级。预计7月25日到27日上述乡镇（街道）仍将持续高森林草原火险气象等级，引发森林草原火灾的风险高。防御指南：1.密切关注天气情况和森林草原火险预警变化；2.加强野外火源管理，停止一切野外用火审批；3.加强森林草原防火宣传教育、巡护监测和督导检查；4.增设林区路口检查卡点，增加巡护人员；5.压实“一长三员”责任，落实“十户联防”体系；6.做好扑救森林草原火灾物资装备准备；7.严格按照“135”机制要求，强化火情处理；8.各级森林草原消防队伍集中驻防，进入待命状态。","longitude":109.4658,"latitude":31.02,"type":"p0000002","title":"重庆市奉节县发布森林（草原）火险橙色预警"},{"id":"50022341600000_20240725125308","headline":"潼南气象台发布高温橙色预警[Ⅱ级/严重]","effective":"2024/07/25 12:53","description":"潼南区气象台2024年7月25日12时50分发布“高温橙色预警信号”，预计25日13时至18时，我区柏梓、寿桥、小渡、群力、太安、桂林、玉溪、古溪、塘坝、双江、上和、田家等镇街日最高气温将升至37℃以上，请注意防范。","longitude":105.8239,"latitude":30.1804,"type":"p0003002","title":"重庆市潼南县发布高温橙色预警"},{"id":"50011241600000_20240725123210","headline":"渝北区气象台发布高温橙色预警[Ⅱ级/严重]","effective":"2024/07/25 12:31","description":"渝北区气象台2024年7月25日12时20分发布“高温橙色预警信号”，目前我区大盛镇、统景镇日最高气温已升至37℃以上，预计25日13时至18时，兴隆镇、木耳镇、石船镇、龙兴镇、洛碛镇、大湾镇、古路镇、玉峰山镇、悦来街道、仙桃街道、双龙湖街道日最高气温将升至37℃以上。","longitude":106.5129,"latitude":29.6015,"type":"p0003002","title":"重庆市渝北区发布高温橙色预警"},{"id":"50022441600000_20240725123056","headline":"铜梁区气象台发布高温橙色预警[Ⅱ级/严重]","effective":"2024/07/25 12:30","description":"重庆市铜梁区气象台2024年7月25日12时00分发布“高温橙色预警信号”，预计7月25日13时至18时，蒲吕街道、巴川街道、东城街道、旧县街道、水口镇、白羊镇、二坪镇、华兴镇、安溪镇、大庙镇、虎峰镇、福果镇、石鱼镇、庆隆镇、侣俸镇、平滩镇、太平镇、少云镇、安居镇、维新镇、高楼镇、永嘉镇、小林镇、土桥镇、围龙镇、西河镇、南城街道、双山镇日最高气温将升至37℃以上。防御指南：1.注意防中暑、防溺水。2.注意林区、景区、城镇、工地、古镇古街、农事活动、祭祀等火灾防范。3.注意节约用电、用水和安全生产。4.缩短户外活动和露天作业时间。5.相关部门和乡镇街道按照职责，做好高温防范应对工作。","longitude":106.0527,"latitude":29.8494,"type":"p0003002","title":"重庆市铜梁县发布高温橙色预警"},{"id":"50011141600000_20240725121942","headline":"大足区气象台发布高温橙色预警[Ⅱ级/严重]","effective":"2024/07/25 12:19","description":"大足区气象台2024年7月25日12时15分发布“高温橙色预警信号”：预计25日13时至19时，我区玉龙镇、雍溪镇、万古镇、国梁镇、回龙镇、石马镇、拾万镇、棠香街道、智凤街道、龙岗街道、宝顶镇、铁山镇、龙滩子街道、通桥街道、邮亭镇、双路街道、龙水镇、珠溪镇、龙石镇、宝兴镇等镇街日最高气温将升至37℃以上。请各地注意防范。","longitude":105.7153,"latitude":29.7005,"type":"p0003002","title":"重庆市大足区发布高温橙色预警"},{"id":"50011441600000_20240725121244","headline":"黔江区气象台发布高温橙色预警[Ⅱ级/严重]","effective":"2024/07/25 12:12","description":"黔江区气象台2024年7月25日12时00分发布“高温橙色预警信号”，预计25日13时至20时，黄溪镇、黎水镇、杉岭乡、白石镇、黑溪镇、石会镇、小南海镇、中塘镇、城东街道、城西街道、沙坝镇、金溪镇、城南街道、正阳街道、舟白街道、蓬东乡、冯家街道、白土乡、新华乡、太极镇、濯水镇、阿蓬江镇、金洞乡等乡镇街道日最高气温将升至37℃以上，请各地注意防范。","longitude":108.7826,"latitude":29.5275,"type":"p0003002","title":"重庆市黔江区发布高温橙色预警"},{"id":"50010341600000_20240725121133","headline":"重庆市气象台发布渝中区高温橙色预警[Ⅱ级/严重]","effective":"2024/07/25 12:11","description":"重庆市气象台2024年7月25日11时30分发布“高温橙色预警信号”，预计25日13时至18时，菜园坝街道、大坪街道、两路口街道、上清寺街道、大溪沟街道、南纪门街道、七星岗街道、解放碑街道、化龙桥街道、朝天门街道、石油路街道日最高气温将升至37℃以上。","longitude":106.5629,"latitude":29.5567,"type":"p0003002","title":"重庆市渝中区发布高温橙色预警"},{"id":"50024141600000_20240725121024","headline":"秀山土家族苗族自治县气象台发布高温红色预警[Ⅰ级/特别严重]","effective":"2024/07/25 12:10","description":"秀山县气象台2024年7月25日11时50分发布“高温红色预警信号”，预计25日13时至19时，溪口镇、隘口镇、洪安镇、官庄街道、峨溶镇、石耶镇、梅江镇、平凯街道、中和街道、乌杨街道、兰桥镇、龙池镇、妙泉镇、龙凤坝镇、清溪场街道、宋农镇、海洋乡、石堤镇、里仁镇、大溪乡海拔400米以下地区日最高气温将升至40℃以上，其余乡镇街道海拔500米以下地区日最高气温将升37℃以上。","longitude":108.996,"latitude":28.4448,"type":"p0003001","title":"重庆市秀山土家族苗族自治县发布高温红色预警"},{"id":"50010841600000_20240725120846","headline":"重庆市气象台发布南岸区高温橙色预警[Ⅱ级/严重]","effective":"2024/07/25 12:08","description":"重庆市气象台2024年7月25日11时30分发布“高温橙色预警信号”，预计25日13时至18时，长生桥镇、迎龙镇、弹子石街道、峡口镇、鸡冠石镇、铜元局街道、南坪街道、花园路街道、广阳镇、南坪镇、涂山镇、海棠溪街道日最高气温将升至37℃以上。","longitude":106.5608,"latitude":29.524,"type":"p0003002","title":"重庆市南岸区发布高温橙色预警"},{"id":"50024241600000_20240725120746","headline":"酉阳土家族苗族自治县气象台发布高温橙色预警[Ⅱ级/严重]","effective":"2024/07/25 12:07","description":"酉阳县气象台2024年7月25日12时00分发布“高温橙色预警信号”，预计25日12时至18时，万木镇、清泉乡、官清乡、小河镇、庙溪乡、龚滩镇、两罾乡、酉酬镇、酉水河镇、龙潭镇、木叶乡、兴隆镇、车田乡、泔溪镇、大溪镇、偏柏乡、五福镇、可大乡、麻旺镇、腴地乡、花田乡、双泉乡、浪坪乡、苍岭镇、宜居乡、铜鼓镇、桃花源街道、钟多街道、涂市镇、板溪镇、板桥乡、丁市镇、后坪乡、楠木乡、李溪镇、南腰界镇日最高气温将升至37℃以上，局地可达40℃。","longitude":108.7672,"latitude":28.8398,"type":"p0003002","title":"重庆市酉阳土家族苗族自治县发布高温橙色预警"},{"id":"50019841600000_20240725120551","headline":"重庆市气象台发布两江新区高温橙色预警[Ⅱ级/严重]","effective":"2024/07/25 12:05","description":"重庆市气象台2024年7月25日11时30分发布“高温橙色预警信号”，预计25日13时至18时，礼嘉街道、鸳鸯街道、翠云街道、天宫殿街道、人和街道、大竹林街道、康美街道、金山街道日最高气温将升至37℃以上。","longitude":"","latitude":"","type":"p0003002","title":"发布高温橙色预警"},{"id":"50010741600000_20240725120318","headline":"重庆市气象台发布九龙坡区高温橙色预警[Ⅱ级/严重]","effective":"2024/07/25 12:03","description":"重庆市气象台2024年7月25日11时30分发布“高温橙色预警信号”，预计25日13时至18时，黄桷坪街道、杨家坪街道、西彭镇、铜罐驿镇、陶家镇、华岩镇、中梁山街道、谢家湾街道、九龙街道、二郎街道、石桥铺街道、渝州路街道、石坪桥街道日最高气温将升至37℃以上。","longitude":106.481,"latitude":29.5235,"type":"p0003002","title":"重庆市九龙坡区发布高温橙色预警"},{"id":"50010541600000_20240725120039","headline":"重庆市气象台发布江北区高温橙色预警[Ⅱ级/严重]","effective":"2024/07/25 12:00","description":"重庆市气象台2024年7月25日11时30分发布“高温橙色预警信号”，预计25日13时至18时，石马河街道、大石坝街道、观音桥街道、华新街街道、五里店街道、江北城街道、寸滩街道、郭家沱街道、鱼嘴镇、复盛镇、五宝镇日最高气温将升至37℃以上。","longitude":106.5328,"latitude":29.5754,"type":"p0003002","title":"重庆市江北区发布高温橙色预警"},{"id":"50024041600000_20240725115952","headline":"石柱土家族自治县气象台发布高温红色预警[Ⅰ级/特别严重]","effective":"2024/07/25 11:59","description":"石柱县气象台2024年7月25日12时00分发布“高温红色预警信号”，预计25日13时至18时，西沱镇、王场镇、沿溪镇、黎场乡日最高气温将升至40℃以上；临溪镇、河嘴乡、金铃乡、三河镇、大歇镇、新乐乡、龙沙镇、万朝镇、黄鹤镇、南宾街道、下路街道、万安街道日最高气温将升至37℃以上。","longitude":108.1124,"latitude":29.9985,"type":"p0003001","title":"重庆市石柱土家族自治县发布高温红色预警"},{"id":"50019941600000_20240725115817","headline":"万盛经开区气象台发布森林草原火险橙色预警[Ⅱ级/严重]","effective":"2024/07/25 11:58","description":"万盛经开区森林防灭火指挥部、万盛经开区规划自然资源局和万盛经开区气象局2024年7月25日11时45分联合更新发布“森林草原火险橙色预警信号”，我区大部分镇街已连续多日出现4级及以上森林草原火险气象等级，预计25日到26日我区还将持续4级及以上森林草原火险气象等级，高度危险，引发森林草原火灾的可能性较大。","longitude":0.0,"latitude":0.0,"type":"p0000002","title":"重庆市万盛经济技术开发区发布森林（草原）火险橙色预警"},{"id":"50023441600000_20240725115805","headline":"开州区气象台发布高温橙色预警[Ⅱ级/严重]","effective":"2024/07/25 11:57","description":"开州区气象台2024年7月25日11时55分发布“高温橙色预警信号”，预计25日12时至19时，赵家街道、渠口镇、厚坝镇、白鹤街道、镇东街道、丰乐街道、文峰街道、汉丰街道、云枫街道、义和镇、南雅镇、河堰镇、谭家镇、敦好镇、温泉镇、金峰镇、正安街道、九龙山镇、中和镇、岳溪镇、长沙镇、南门镇等街道（乡镇）海拔400米以下地区日最高气温将升至37℃以上。","longitude":108.4144,"latitude":31.1886,"type":"p0003002","title":"重庆市开县发布高温橙色预警"},{"id":"50010641600000_20240725115616","headline":"沙坪坝区气象台发布高温橙色预警[Ⅱ级/严重]","effective":"2024/07/25 11:56","description":"重庆市沙坪坝区气象台2024年7月25日11时40分发布“高温橙色预警信号”：预计25日13时至18时，我区除歌乐山街道、中梁镇以外，其余全部镇街日最高气温将升至37℃以上，请注意防暑降温、预防火灾和防范溺水事件。","longitude":106.4542,"latitude":29.5412,"type":"p0003002","title":"重庆市沙坪坝区发布高温橙色预警"},{"id":"50019941600000_20240725115526","headline":"万盛经开区气象台发布高温橙色预警[Ⅱ级/严重]","effective":"2024/07/25 11:55","description":"万盛经开区气象台2024年7月25日11时40分更新发布“高温橙色预警信号”，预计7月25日白天至26日白天，我区万盛街道、东林街道、万东镇、丛林镇、关坝镇、黑山镇、石林镇、金桥镇、南桐镇、青年镇海拔600米以下地区日最高气温将达37℃以上，请注意防暑降温及预防火灾。","longitude":0.0,"latitude":0.0,"type":"p0003002","title":"重庆市万盛经济技术开发区发布高温橙色预警"},{"id":"50022741600000_20240725115522","headline":"璧山区气象台发布森林草原火险橙色预警[Ⅱ级/严重]","effective":"2024/07/25 11:55","description":"璧山区森林防灭火指挥部、璧山区应急管理局、璧山区林业局、璧山区气象局2024年7月25日11时20分联合发布“森林草原火险橙色预警信号”，预计7月25日到28日我区八塘镇、七塘镇、大路街道、河边镇、璧城街道、福禄镇、大兴镇、璧泉街道、青杠街道、来凤街道、正兴镇、丁家街道、健龙镇、三合镇、广普镇还将持续4级及以上森林草原火险气象等级，高度危险，引发森林草原火灾的可能性较大。","longitude":106.2234,"latitude":29.5954,"type":"p0000002","title":"重庆市璧山县发布森林（草原）火险橙色预警"},{"id":"50019741600000_20240725115355","headline":"重庆市气象台发布高新区高温橙色预警[Ⅱ级/严重]","effective":"2024/07/25 11:53","description":"重庆市气象台2024年7月25日11时30分发布“高温橙色预警信号”，预计25日13时至18时，石板镇、巴福镇、走马镇、白市驿镇、金凤镇、含谷镇、香炉山街道、西永街道、曾家镇、虎溪街道日最高气温将升至37℃以上。","longitude":"","latitude":"","type":"p0003002","title":"发布高温橙色预警"},{"id":"50010441600000_20240725115124","headline":"重庆市气象台发布大渡口区高温橙色预警[Ⅱ级/严重]","effective":"2024/07/25 11:51","description":"重庆市气象台2024年7月25日11时30分发布“高温橙色预警信号”，预计25日13时至18时，跳磴镇、新山村街道、跃进村街道、茄子溪街道、八桥镇、春晖路街道、九宫庙街道、建胜镇日最高气温将升至37℃以上。","longitude":106.4861,"latitude":29.481,"type":"p0003002","title":"重庆市大渡口区发布高温橙色预警"},{"id":"50010241600000_20240725114834","headline":"涪陵气象台发布高温橙色预警[Ⅱ级/严重]","effective":"2024/07/25 11:48","description":"涪陵区气象台2024年7月25日11时50分发布“高温橙色预警信号”，预计7月25日13时至20时，珍溪镇、南沱镇、百胜镇、清溪镇、白涛街道、崇义街道、江北街道、江东街道、敦仁街道、荔枝街道、龙桥街道、李渡街道、马鞍街道、义和街道、石沱镇、马武镇、蔺市街道日最高气温将升至37℃以上。","longitude":107.3949,"latitude":29.7037,"type":"p0003002","title":"重庆市涪陵区发布高温橙色预警"},{"id":"50010141600000_20240725114537","headline":"万州气象台发布高温红色预警[Ⅰ级/特别严重]","effective":"2024/07/25 11:45","description":"万州区气象台2024年7月25日11时35分发布“高温红色预警信号”，预计25日13时至19时，高笋塘街道、太龙镇、钟鼓楼街道、分水镇、长岭镇、龙都街道、百安坝街道、五桥街道、牌楼街道、陈家坝街道、郭村镇、弹子镇、太白街道、沙河街道、天城街道、周家坝街道、高峰街道、双河口街道、九池街道、新田镇、武陵镇、龙驹镇等乡镇街道海拔400米以下地区日最高气温将升至40℃以上。做好防中暑、防溺水等措施。加强工地、林区、景区、城镇、古镇古街、农事活动、祭祀等火灾防范。节约用电、用水，强化安全生产。避免户外活动，暂停除特殊行业外的露天作业。相关部门和乡镇街道按照职责，做好高温防范应对工作。","longitude":108.3802,"latitude":30.8078,"type":"p0003001","title":"重庆市万州区发布高温红色预警"},{"id":"50000041600000_20240725114231","headline":"重庆市气象台发布高温橙色预警[Ⅱ级/严重]","effective":"2024/07/25 11:42","description":"重庆市气象台2024年7月25日11时30分发布“高温橙色预警信号”，预计25日13时至18时，渝中、沙坪坝、大渡口、江北、九龙坡、南岸、两江新区、高新区、渝北、北碚、巴南、潼南、合川、大足、铜梁、璧山、荣昌、永川、江津、綦江、万盛经开区、长寿、垫江、涪陵、丰都、忠县、梁平、万州、开州、云阳、奉节、巫溪、巫山、武隆、彭水、石柱、黔江、酉阳、秀山海拔400米以下地区日最高气温将升至37℃以上，局地可达40℃。","longitude":106.33,"latitude":29.35,"type":"p0003002","title":"重庆市发布高温橙色预警"},{"id":"50011841600000_20240725113554","headline":"永川区气象台发布森林草原火险橙色预警[Ⅱ级/严重]","effective":"2024/07/25 11:35","description":"永川区森林防灭火指挥部办公室、永川区应急管理局、永川区林业局、永川区气象局2024年7月25日11时40分联合继续发布“森林火险橙色预警信号”，我区全部镇街已连续多日出现较高森林火险气象等级，预计7月25日到27日我区各镇街仍将持续较高森林火险气象等级，发生森林火灾的风险高。","longitude":105.8947,"latitude":29.3487,"type":"p0000002","title":"重庆市永川区发布森林（草原）火险橙色预警"},{"id":"50023141600000_20240725112932","headline":"垫江县气象台发布高温红色预警[Ⅰ级/特别严重]","effective":"2024/07/25 11:29","description":"垫江县气象台2024年7月25日11时20分发布“高温红色预警信号”，预计25日12时至18时，澄溪镇、砚台镇、高峰镇、周嘉镇、新民镇日最高气温将升至40℃以上，其余乡镇（街道）日最高气温将升至37℃以上，提请注意防范。","longitude":107.3487,"latitude":30.33,"type":"p0003001","title":"重庆市垫江县发布高温红色预警"},{"id":"50010241600000_20240725112443","headline":"涪陵气象台发布森林草原火险橙色预警[Ⅱ级/严重]","effective":"2024/07/25 11:24","description":"涪陵区森林草原防灭火指挥部、涪陵区应急局、涪陵区林业局、涪陵区气象局2024年7月25日11时20分联合更新发布“森林草原火险橙色预警信号”，我区已连续多日出现高森林草原火险气象等级。预计7月25日到26日我区仍将持续高或极高的森林草原火险气象等级，极度危险，引发森林草原火灾可能性非常大。","longitude":107.3949,"latitude":29.7037,"type":"p0000002","title":"重庆市涪陵区发布森林（草原）火险橙色预警"},{"id":"50011841600000_20240725112428","headline":"永川区气象台发布高温橙色预警[Ⅱ级/严重]","effective":"2024/07/25 11:24","description":"永川区气象台2024年7月25日11时30分发布“高温橙色预警信号”，预计25日12时至19时，我区茶山竹海街道、陈食街道、临江镇、板桥镇、中山路街道、大安街道、金龙镇、南大街街道、宝峰镇、青峰镇、双石镇、胜利路街道、三教镇、红炉镇、永荣镇、松溉镇、朱沱镇、仙龙镇、五间镇、吉安镇、何埂镇、来苏镇、卫星湖街道日最高气温将升至37℃以上。","longitude":105.8947,"latitude":29.3487,"type":"p0003002","title":"重庆市永川区发布高温橙色预警"},{"id":"50011341600000_20240725112231","headline":"巴南区气象台发布高温橙色预警[Ⅱ级/严重]","effective":"2024/07/25 11:22","description":"巴南区气象台2024年7月25日11时20分发布“高温橙色预警信号”，预计25日13时至19时，姜家镇、东温泉镇、石龙镇、石滩镇、双河口镇、丰盛镇、麻柳嘴镇、天星寺镇、莲花街道、南泉街道、惠民街道、二圣镇、花溪街道、李家沱街道、木洞镇、龙洲湾街道、接龙镇、鱼洞街道、圣灯山镇、一品街道、南彭街道、安澜镇、界石镇日最高气温将升至37℃以上。","longitude":106.5194,"latitude":29.3819,"type":"p0003002","title":"重庆市巴南区发布高温橙色预警"},{"id":"50023041600000_20240725112205","headline":"丰都县气象台发布高温橙色预警[Ⅱ级/严重]","effective":"2024/07/25 11:21","description":"丰都县气象台2024年7月25日11时20分发布“高温橙色预警信号”，预计25日12时至18时，董家镇、许明寺镇、三元镇、兴龙镇、双龙镇、青龙乡、仁沙镇、社坛镇、保合镇、十直镇、树人镇、虎威镇、名山街道、兴义镇、高家镇、龙孔镇、三合街道、湛普镇、三建乡、双路镇、江池镇日最高气温将升至37℃以上。","longitude":107.7325,"latitude":29.8664,"type":"p0003002","title":"重庆市丰都县发布高温橙色预警"},{"id":"50023241600000_20240725112144","headline":"武隆区气象台发布高温红色预警[Ⅰ级/特别严重]","effective":"2024/07/25 11:21","description":"武隆区气象台2024年7月25日11时10分发布“高温红色预警信号”，预计25日12时至18时，鸭江镇、长坝镇、白马镇、平桥镇、石桥乡、江口镇、凤山街道、芙蓉街道、羊角街道、沧沟乡等乡镇街道海拔400米以下地区日最高气温将升至40℃以上，火炉镇、凤来镇、庙垭乡、文复乡、仙女山街道等乡镇街道海拔600米以下地区日最高气温将升至37℃以上，请各地注意防范。","longitude":107.7409,"latitude":29.323,"type":"p0003001","title":"重庆市武隆县发布高温红色预警"},{"id":"50011041600000_20240725111846","headline":"綦江区气象台发布高温橙色预警[Ⅱ级/严重]","effective":"2024/07/25 11:18","description":"綦江区气象台2024年7月25日11时10分发布“高温橙色预警信号”，预计25日12时至19时，古南街道、文龙街道、通惠街道、三江街道、石角镇、永新镇、篆塘镇、三角镇、东溪镇、赶水镇、新盛街道、隆盛镇、扶欢镇日最高气温将升至37℃以上。","longitude":106.6514,"latitude":29.0281,"type":"p0003002","title":"重庆市綦江区发布高温橙色预警"},{"id":"50023741600000_20240725110820","headline":"巫山县气象台发布高温红色预警[Ⅰ级/特别严重]","effective":"2024/07/25 11:08","description":"巫山县气象台2024年7月25日11时00分发布“高温红色预警信号”，预计25日12时至19时，当阳乡、两坪乡、骡坪镇、培石乡、三溪乡、竹贤乡、笃坪乡、邓家乡、高唐街道、龙门街道、双龙镇、金坪乡、福田镇、龙溪镇、大昌镇、平河乡、官阳镇、铜鼓镇、庙宇镇、官渡镇、红椿乡、抱龙镇、大溪乡、巫峡镇、曲尺乡、建平乡等乡镇（街道）海拔400米以下地区日最高气温将升至40℃以上。","longitude":109.8789,"latitude":31.0748,"type":"p0003001","title":"重庆市巫山县发布高温红色预警"},{"id":"50011741600000_20240725110336","headline":"合川区气象台发布高温橙色预警[Ⅱ级/严重]","effective":"2024/07/25 11:03","description":"合川区气象台2024年7月25日11时00分发布“高温橙色预警信号”，预计25日13时至19时，云门街道、土场镇、香龙镇、小沔镇、草街街道、三庙镇、钓鱼城街道、合阳城街道、南津街街道、渭沱镇、太和镇等全区30个镇街海拔400米以下地区日最高气温将升至37℃以上。","longitude":106.2656,"latitude":29.991,"type":"p0003002","title":"重庆市合川区发布高温橙色预警"},{"id":"50024341600000_20240725110142","headline":"彭水气象台发布高温红色预警[Ⅰ级/特别严重]","effective":"2024/07/25 11:01","description":"彭水自治县气象台2024年7月25日11时00分发布“高温红色预警信号”，预计25日14时至18时，汉葭街道、绍庆街道、靛水街道、新田镇、万足镇、鹿角镇、桐楼乡、郁山镇、连湖镇、联合乡、保家镇、高谷镇等乡镇（街道）海拔400米以下地区日最高气温将升至40℃以上，请注意防暑降温、防范火灾和溺水事件。","longitude":108.1666,"latitude":29.2939,"type":"p0003001","title":"重庆市彭水苗族土家族自治县发布高温红色预警"},{"id":"50023341600000_20240725110127","headline":"忠县气象台发布高温橙色预警[Ⅱ级/严重]","effective":"2024/07/25 11:01","description":"忠县气象台2024年7月25日10时50分更新发布“高温橙色预警信号”，预计25日11时至20时，忠州街道、白公街道、新生街道、乌杨街道、涂井乡、石宝镇、汝溪镇、野鹤镇、复兴镇、东溪镇、黄金镇、永丰镇、花桥镇、三汇镇、马灌镇、官坝镇、金鸡镇、兴峰乡、白石镇、任家镇、双桂镇、拔山镇、洋渡镇、新立镇、磨子乡等乡镇（街道）日最高气温将升至37℃以上。","longitude":108.0375,"latitude":30.2915,"type":"p0003002","title":"重庆市忠县发布高温橙色预警"},{"id":"50011641600000_20240725105746","headline":"江津气象台发布高温橙色预警[Ⅱ级/严重]","effective":"2024/07/25 10:57","description":"江津区气象台2024年7月25日10时50分发布“高温橙色预警信号”，预计25日12时至19时，夏坝镇、贾嗣镇、珞璜镇、支坪镇、鼎山街道、杜市镇、蔡家镇、嘉平镇、广兴镇、西湖镇、油溪镇、德感街道、吴滩镇、龙华镇、圣泉街道、双福街道、先锋镇、几江街道、永兴镇、慈云镇、石门镇、朱杨镇、石蟆镇、白沙镇、李市镇日最高气温将升至37℃以上，请相关部门及人员做好防御工作。","longitude":106.2532,"latitude":29.2834,"type":"p0003002","title":"重庆市江津区发布高温橙色预警"},{"id":"50023841600000_20240725105524","headline":"巫溪气象台发布高温红色预警[Ⅰ级/特别严重]","effective":"2024/07/25 10:55","description":"巫溪县气象台2024年7月25日10时30分发布“高温红色预警信号”，预计25日13时至19时，柏杨街道、天星乡、大河乡、宁厂镇、白鹿镇、凤凰镇、蒲莲镇、城厢镇、花台乡、宁河街道、兰英乡、下堡镇、红池坝镇等海拔400米以下乡镇（街道）日最高气温将升至40℃以上。","longitude":109.6289,"latitude":31.3966,"type":"p0003001","title":"重庆市巫溪县发布高温红色预警"},{"id":"50023441600000_20240725105121","headline":"开州区气象台发布森林草原火险橙色预警[Ⅱ级/严重]","effective":"2024/07/25 10:51","description":"重庆市开州区森林草原防灭火指挥部、重庆市开州区应急管理局、重庆市开州区林业局、重庆市开州区气象局2024年7月25日10时45分继续联合发布“森林草原火险橙色预警信号”，我区大部镇街已连续多日出现高森林草原火险气象等级。预计7月25日到7月27日我区仍将持续高森林草原火险气象等级，发生森林草原火灾的风险高。","longitude":108.4144,"latitude":31.1886,"type":"p0000002","title":"重庆市开县发布森林（草原）火险橙色预警"},{"id":"50023641600000_20240725105054","headline":"奉节县气象台发布高温橙色预警[Ⅱ级/严重]","effective":"2024/07/25 10:50","description":"奉节县气象台2024年7月25日10时40分继续发布“高温橙色预警信号”，预计25日12时至20时，草堂镇、白帝镇、康乐镇、汾河镇、长安乡、永乐镇、冯坪乡、鹤峰乡、康坪乡、大树镇、青莲镇、公平镇、朱衣镇、红土乡、石岗乡、竹园镇、青龙镇、羊市镇、五马镇、安坪镇、甲高镇、夔州街道、永安街道、夔门街道、鱼复街道海拔400米以下地区日最高气温将升至37℃以上。请注意防范。防御指南：1.注意防中暑、防溺水。2.注意工地、林区、景区、城镇、古镇古街、农事活动、祭祀等火灾防范。3.注意节约用电、用水和安全生产。4.缩短户外活动和露天作业时间。5.相关部门和乡镇街道按照职责，做好高温防范应对工作。","longitude":109.4658,"latitude":31.02,"type":"p0003002","title":"重庆市奉节县发布高温橙色预警"},{"id":"50011541600000_20240725103611","headline":"长寿区气象台发布森林草原火险橙色预警[Ⅱ级/严重]","effective":"2024/07/25 10:36","description":"长寿区森林防灭火指挥部办公室、长寿区应急管理局、长寿区林业局、长寿区气象局2024年7月25日10时30分联合继续发布“森林草原火险橙色预警信号”：我区已连续多日出现高森林火险气象等级，预计7月25日到27日我区全部街镇仍将持续高森林火险气象等级，引发森林火灾的可能性大。","longitude":107.0749,"latitude":29.8337,"type":"p0000002","title":"重庆市长寿区发布森林（草原）火险橙色预警"},{"id":"50022741600000_20240725103040","headline":"璧山区气象台发布高温橙色预警[Ⅱ级/严重]","effective":"2024/07/25 10:30","description":"璧山区气象台2024年7月25日9时50分发布“高温橙色预警信号”，预计25日13时至19时，璧泉街道、福禄镇、璧城街道、河边镇、八塘镇、大路街道、七塘镇、广普镇、三合镇、健龙镇、来凤街道、丁家街道、正兴镇、青杠街道、大兴镇日最高气温将升至37℃以上。","longitude":106.2234,"latitude":29.5954,"type":"p0003002","title":"重庆市璧山县发布高温橙色预警"},{"id":"50023541600000_20240725102921","headline":"云阳县气象台发布高温红色预警[Ⅰ级/特别严重]","effective":"2024/07/25 10:29","description":"云阳县气象台2024年7月25日10时20分发布“高温红色预警信号”，预计25日12时至18时，泥溪镇、龙角镇、养鹿镇、南溪镇、云阳镇、平安镇、黄石镇、盘龙街道、高阳镇、普安乡、渠马镇、故陵镇、双龙镇、故陵镇、龙洞镇等海拔300米以下地区日最高气温将升至40℃以上，海拔300-600米地区日最高气温将升至37℃以上。请注意防暑降温和预防火灾。","longitude":108.6977,"latitude":30.9305,"type":"p0003001","title":"重庆市云阳县发布高温红色预警"},{"id":"50010941600000_20240725102716","headline":"北碚区气象台发布高温橙色预警[Ⅱ级/严重]","effective":"2024/07/25 10:27","description":"北碚区气象台2024年7月25日10时20分发布“高温橙色预警信号”，预计25日12时至19时，天府镇、朝阳街道、澄江镇、东阳街道、三圣镇、柳荫镇、金刀峡镇、静观镇、施家梁镇、龙凤桥街道、歇马街道、蔡家岗街道、童家溪镇、复兴街道、天生街道、水土街道、北温泉街道海拔400米以下的区域日最高气温将升至37℃以上。","longitude":106.4379,"latitude":29.8254,"type":"p0003002","title":"重庆市北碚区发布高温橙色预警"},{"id":"50022341600000_20240725100421","headline":"潼南气象台发布森林草原火险橙色预警[Ⅱ级/严重]","effective":"2024/07/25 10:04","description":"重庆市潼南区森林草原防灭火指挥部、潼南区应急局、潼南区林业局、潼南区气象局2024年7月25日10时00分继续联合发布“森林草原火险橙色预警”信号：预计7月25日到28日我区全部镇街仍将出现4级及以上森林草原火险气象等级，引发森林草原火灾的可能性较大，请加强巡查防范。","longitude":105.8239,"latitude":30.1804,"type":"p0000002","title":"重庆市潼南县发布森林（草原）火险橙色预警"},{"id":"50011941600000_20240724174151","headline":"南川区气象台发布森林草原火险橙色预警[Ⅱ级/严重]","effective":"2024/07/24 17:41","description":"南川区森林草原防灭火指挥部办公室、南川区林业局、南川区气象局2024年7月24日17时30分联合继续发布“森林草原火险橙色预警信号”，我区已连续多日出现高森林草原火险气象等级。预计7月24日到7月27日仍将持续高森林草原火险气象等级，发生森林草原火灾的风险高。","longitude":107.0982,"latitude":29.1566,"type":"p0000002","title":"重庆市南川区发布森林（草原）火险橙色预警"},{"id":"50011141600000_20240724165123","headline":"大足区气象台发布森林草原火险橙色预警[Ⅱ级/严重]","effective":"2024/07/24 16:51","description":"大足区森林防灭火指挥部办公室、大足区林业局、大足区气象局2024年07月24日16时40分联合继续发布“森林草原火险橙色预警信号”：我区玉龙镇、雍溪镇、金山镇、万古镇、国梁镇、回龙镇、石马镇、拾万镇、古龙镇、三驱镇、棠香街道、智凤街道、龙岗街道、宝顶镇、高升镇、铁山镇、中敖镇、高坪镇、龙滩子街道、通桥街道、邮亭镇、双路街道、龙水镇、珠溪镇、龙石镇、季家镇、宝兴镇等镇街已连续多日出现高森林草原火险气象等级。预计7月24日到27日我区仍将持续高森林草原火险气象等级，发生森林草原火灾的风险高。","longitude":105.7153,"latitude":29.7005,"type":"p0000002","title":"重庆市大足区发布森林（草原）火险橙色预警"},{"id":"50023141600000_20240724120735","headline":"垫江县气象台发布森林草原火险橙色预警[Ⅱ级/严重]","effective":"2024/07/24 12:07","description":"垫江县森林草原防灭火指挥部、垫江县应急管理局、垫江县林业局、垫江县气象局2024年7月24日12时00分联合继续发布“森林草原火险橙色预警信号”，我县所有乡镇（街道）已连续多日出现高森林草原火险气象等级，预计7月24日到27日仍将持续高森林草原火险气象等级，发生森林草原火灾的风险高。","longitude":107.3487,"latitude":30.33,"type":"p0000002","title":"重庆市垫江县发布森林（草原）火险橙色预警"},{"id":"50011041600000_20240724115249","headline":"綦江区气象台发布森林草原火险橙色预警[Ⅱ级/严重]","effective":"2024/07/24 11:52","description":"綦江区森林草原防灭火指挥部、綦江区应急管理局、綦江区林业局、綦江区气象局2024年7月24日11时50分联合继续发布“森林草原火险橙色预警信号”，我区老瀛山、长田、万隆、古剑山等重点林区已连续数日出现晴热高温天气，森林草原火险气象等级较高。预计7月24日到27日上述地区仍将持续较高森林草原火险气象等级，引发森林草原火灾的可能性大。","longitude":106.6514,"latitude":29.0281,"type":"p0000002","title":"重庆市綦江区发布森林（草原）火险橙色预警"},{"id":"50024041600000_20240724115200","headline":"石柱土家族自治县气象台发布森林草原火险橙色预警[Ⅱ级/严重]","effective":"2024/07/24 11:51","description":"石柱县森林草原防灭火指挥部、石柱县应急管理局、石柱县林业局、石柱县气象局2024年7月24日11时50分联合继续发布“森林草原火险橙色预警信号”，我县河嘴乡、临溪镇、王场镇、西沱镇、黎场乡、沿溪镇、万朝镇、新乐乡、金竹乡、洗新乡、黄鹤镇、龙潭乡、马武镇、金铃乡、下路街道、南宾街道、万安街道、龙沙镇、大歇镇已连续多日出现高森林草原火险气象等级。预计7月24日到27日上述乡镇（街道）仍将持续高森林草原火险气象等级，发生森林草原火灾的风险高。","longitude":108.1124,"latitude":29.9985,"type":"p0000002","title":"重庆市石柱土家族自治县发布森林（草原）火险橙色预警"},{"id":"50023341600000_20240724114738","headline":"忠县气象台发布森林草原火险橙色预警[Ⅱ级/严重]","effective":"2024/07/24 11:47","description":"忠县森林防灭火指挥部、忠县应急管理局、忠县林业局、忠县气象局2024年7月24日11时00分联合发布“森林草原火险橙色预警信号”，我县忠州街道、白公街道、乌杨街道、新生街道、白石镇、兴峰乡、马灌镇、三汇镇、永丰镇、任家镇、金鸡镇、新立镇、涂井乡、拔山镇、汝溪镇、黄金镇、双桂镇、花桥镇、官坝镇、石黄镇、金声乡、野鹤镇、石宝镇、东溪镇、复兴镇、磨子土家族乡、洋渡镇、善广乡、石子乡已连续多日出现高森林草原火险气象等级。预计7月24日到27日上述乡镇（街道）仍将持续高森林草原火险气象等级，发生森林草原火灾的风险高。","longitude":108.0375,"latitude":30.2915,"type":"p0000002","title":"重庆市忠县发布森林（草原）火险橙色预警"},{"id":"50011641600000_20240724110902","headline":"江津区气象台发布森林草原火险橙色预警[Ⅱ级/严重]","effective":"2024/07/24 11:08","description":"江津区森林草原防灭火指挥部、江津区应急局、江津区林业局、江津区气象局2024年7月24日11时00分联合更新发布“森林草原火险橙色预警信号”，我区贾嗣镇、支坪镇、杜市镇、鼎山街道、珞璜镇、夏坝镇、广兴镇、四面山镇、西湖镇、嘉平镇、四屏镇、柏林镇、中山镇、石门镇、油溪镇、龙华镇、几江街道、先锋镇、吴滩镇、德感街道、双福街道、圣泉街道、蔡家镇、永兴镇、塘河镇、慈云镇、朱杨镇、石蟆镇、白沙镇、李市镇已出现较高森林草原火险气象等级。预计7月24日到7月26日我区上述镇街仍将持续高森林草原火险气象等级，部分地区等级极高，发生森林草原火灾的可能性大。","longitude":106.2532,"latitude":29.2834,"type":"p0000002","title":"重庆市江津区发布森林（草原）火险橙色预警"},{"id":"50024341600000_20240724104323","headline":"彭水苗族土家族自治县气象台发布森林草原火险橙色预警[Ⅱ级/严重]","effective":"2024/07/24 10:43","description":"彭水自治县森林防灭火指挥部办公室、彭水自治县林业局、彭水自治县气象局2024年7月24日10时30分联合继续发布“森林草原火险橙色预警信号”，预计7月24日到27日我县将出现4级以上森林草原火险气象等级，高度危险，引发森林草原火灾的可能性较大。","longitude":108.1666,"latitude":29.2939,"type":"p0000002","title":"重庆市彭水苗族土家族自治县发布森林（草原）火险橙色预警"},{"id":"50022841600000_20240724104057","headline":"梁平区气象台发布森林草原火险橙色预警[Ⅱ级/严重]","effective":"2024/07/24 10:40","description":"梁平区森林草原防灭火指挥部、梁平区应急管理局、梁平区林业局、梁平区气象局2024年7月24日10时00分联合发布“森林草原火险橙色预警信号”，我区曲水镇、安胜镇、星桥镇、合兴街道、文化镇、复平镇、大观镇、紫照镇、柏家镇、石安镇、金带街道、蟠龙镇、双桂街道、福禄镇、梁山街道、礼让镇、竹山镇、袁驿镇、龙胜乡、明达镇、龙门镇、碧山镇、虎城镇、新盛镇、荫平镇、铁门乡、屏锦镇、云龙镇、和林镇、回龙镇、聚奎镇、仁贤街道、七星镇等地已连续多日出现较高森林草原火险气象等级。预计7月24日到7月27日上述镇街仍将持续较高森林草原火险气象等级，部分地区等级高，引发森林草原火灾的可能性大。","longitude":107.7958,"latitude":30.6751,"type":"p0000002","title":"重庆市梁平县发布森林（草原）火险橙色预警"},{"id":"50000041600000_20240724100920","headline":"重庆市气象台发布森林草原火险橙色预警[Ⅱ级/严重]","effective":"2024/07/24 10:09","description":"重庆市森林草原防灭火指挥部、重庆市应急管理局、重庆市林业局、重庆市气象局2024年7月24日10时00分联合继续发布“森林草原火险橙色预警信号”，我市大渡口区、江北区、沙坪坝区、九龙坡区、南岸区、两江新区、高新区、渝北区、北碚区、巴南区、潼南区、合川区、铜梁区、大足区、荣昌区、永川区、璧山区、江津区、綦江区、万盛经开区、南川区、长寿区、涪陵区、垫江县、丰都县、梁平区、忠县、万州区、开州区、云阳县、奉节县、巫溪县、巫山县、武隆区、彭水县、石柱县、黔江区、酉阳县、秀山县等地已连续多日出现高森林草原火险气象等级。预计7月24日到27日上述区县仍将持续高森林草原火险气象等级，发生森林草原火灾的风险高。","longitude":106.33,"latitude":29.35,"type":"p0000002","title":"重庆市发布森林（草原）火险橙色预警"}]}